{"type": "FeatureCollection", "name": "PBI_Hospitals_4326", "crs": {"type": "name", "properties": {"name": "EPSG:4326"}}, "features": [{"type": "Feature", "properties": {"Address_ID": 54248, "ADDRESS_FULL": "82 Buttonwood Ave", "POSTAL_CODE": "M6M 2J5", "MUNICIPALITY": "YORK", "PLACE_NAME": "West Park Hospital", "LONGITUDE": -79.509, "LATITUDE": 43.6893}, "geometry": {"type": "Point", "coordinates": [-79.509, 43.6893]}}, {"type": "Feature", "properties": {"Address_ID": 487172, "ADDRESS_FULL": "3560 Bathurst St", "POSTAL_CODE": "M6A 2E1", "MUNICIPALITY": "NORTH YORK", "PLACE_NAME": "Baycrest Centre", "LONGITUDE": -79.4341, "LATITUDE": 43.7301}, "geometry": {"type": "Point", "coordinates": [-79.4341, 43.7301]}}, {"type": "Feature", "properties": {"Address_ID": 504810, "ADDRESS_FULL": "285 Cummer Ave", "POSTAL_CODE": "M2M 2G1", "MUNICIPALITY": "NORTH YORK", "PLACE_NAME": "St. John's Hospital", "LONGITUDE": -79.4047, "LATITUDE": 43.7896}, "geometry": {"type": "Point", "coordinates": [-79.4047, 43.7896]}}, {"type": "Feature", "properties": {"Address_ID": 515959, "ADDRESS_FULL": "685 Finch Ave W", "POSTAL_CODE": "M2R 1P2", "MUNICIPALITY": "NORTH YORK", "PLACE_NAME": "St. Bernard's Hospital", "LONGITUDE": -79.4569, "LATITUDE": 43.7705}, "geometry": {"type": "Point", "coordinates": [-79.4569, 43.7705]}}, {"type": "Feature", "properties": {"Address_ID": 536800, "ADDRESS_FULL": "4001 Leslie St", "POSTAL_CODE": "M2K 1E1", "MUNICIPALITY": "NORTH YORK", "PLACE_NAME": "North York General Hospital", "LONGITUDE": -79.3625, "LATITUDE": 43.7696}, "geometry": {"type": "Point", "coordinates": [-79.3625, 43.7696]}}, {"type": "Feature", "properties": {"Address_ID": 773891, "ADDRESS_FULL": "30 Bond St", "POSTAL_CODE": "M5B 1W8", "MUNICIPALITY": "former TORONTO", "PLACE_NAME": "St Michael's Hospital", "LONGITUDE": -79.3777, "LATITUDE": 43.6537}, "geometry": {"type": "Point", "coordinates": [-79.3777, 43.6537]}}, {"type": "Feature", "properties": {"Address_ID": 1008107, "ADDRESS_FULL": "101 Humber College Blvd", "POSTAL_CODE": "M9V 1R8", "MUNICIPALITY": "ETOBICOKE", "PLACE_NAME": "Northwest Gta Hospital", "LONGITUDE": -79.5987, "LATITUDE": 43.7298}, "geometry": {"type": "Point", "coordinates": [-79.5987, 43.7298]}}, {"type": "Feature", "properties": {"Address_ID": 4616608, "ADDRESS_FULL": "3030 Birchmount Rd", "POSTAL_CODE": "M1W 3W3", "MUNICIPALITY": "SCARBOROUGH", "PLACE_NAME": "Scar Grace Hosp - Salvn Army Grace Site", "LONGITUDE": -79.3091, "LATITUDE": 43.8019}, "geometry": {"type": "Point", "coordinates": [-79.3091, 43.8019]}}, {"type": "Feature", "properties": {"Address_ID": 4628244, "ADDRESS_FULL": "3276 St Clair Ave E", "POSTAL_CODE": "M1L 1W1", "MUNICIPALITY": "SCARBOROUGH", "PLACE_NAME": "Providence Healthcare", "LONGITUDE": -79.2852, "LATITUDE": 43.714}, "geometry": {"type": "Point", "coordinates": [-79.2852, 43.714]}}, {"type": "Feature", "properties": {"Address_ID": 5158806, "ADDRESS_FULL": "520 Sutherland Dr", "POSTAL_CODE": "M4G 3V9", "MUNICIPALITY": "NORTH YORK", "PLACE_NAME": "Toronto Rehab Institute - Lyndhurst Site", "LONGITUDE": -79.3697, "LATITUDE": 43.7185}, "geometry": {"type": "Point", "coordinates": [-79.3697, 43.7185]}}, {"type": "Feature", "properties": {"Address_ID": 6208976, "ADDRESS_FULL": "825 Coxwell Ave", "POSTAL_CODE": "M4C 3E7", "MUNICIPALITY": "EAST YORK", "PLACE_NAME": "Toronto East General Hospital", "LONGITUDE": -79.325, "LATITUDE": 43.6898}, "geometry": {"type": "Point", "coordinates": [-79.325, 43.6898]}}, {"type": "Feature", "properties": {"Address_ID": 6282913, "ADDRESS_FULL": "150 Sherway Dr", "POSTAL_CODE": "M9C 1A5", "MUNICIPALITY": "ETOBICOKE", "PLACE_NAME": "Queensway Hospital", "LONGITUDE": -79.5628, "LATITUDE": 43.6093}, "geometry": {"type": "Point", "coordinates": [-79.5628, 43.6093]}}, {"type": "Feature", "properties": {"Address_ID": 6362828, "ADDRESS_FULL": "2867 Ellesmere Rd", "POSTAL_CODE": "M1E 4B9", "MUNICIPALITY": "SCARBOROUGH", "PLACE_NAME": "Rouge Valley Health System Hospital", "LONGITUDE": -79.205, "LATITUDE": 43.7801}, "geometry": {"type": "Point", "coordinates": [-79.205, 43.7801]}}, {"type": "Feature", "properties": {"Address_ID": 6388009, "ADDRESS_FULL": "14 St Matthews Rd", "POSTAL_CODE": "M4M 2B5", "MUNICIPALITY": "former TORONTO", "PLACE_NAME": "Bridgepoint Health", "LONGITUDE": -79.3552, "LATITUDE": 43.6658}, "geometry": {"type": "Point", "coordinates": [-79.3552, 43.6658]}}, {"type": "Feature", "properties": {"Address_ID": 6522400, "ADDRESS_FULL": "650 Church St", "POSTAL_CODE": "M4Y 2G5", "MUNICIPALITY": "former TORONTO", "PLACE_NAME": "Salvation Army Toronto Grace Hospital", "LONGITUDE": -79.3832, "LATITUDE": 43.6703}, "geometry": {"type": "Point", "coordinates": [-79.3832, 43.6703]}}, {"type": "Feature", "properties": {"Address_ID": 7754575, "ADDRESS_FULL": "43 Wellesley St E", "POSTAL_CODE": "M4Y 1H1", "MUNICIPALITY": "former TORONTO", "PLACE_NAME": "Sunnybrook & Women's Coll Orth&Arth Site", "LONGITUDE": -79.3824, "LATITUDE": 43.6651}, "geometry": {"type": "Point", "coordinates": [-79.3824, 43.6651]}}, {"type": "Feature", "properties": {"Address_ID": 7754918, "ADDRESS_FULL": "2075 Bayview Ave", "POSTAL_CODE": "M4N 3M5", "MUNICIPALITY": "NORTH YORK", "PLACE_NAME": "Sunnybrook Hosp, Ambulance 57", "LONGITUDE": -79.3779, "LATITUDE": 43.7219}, "geometry": {"type": "Point", "coordinates": [-79.3779, 43.7219]}}, {"type": "Feature", "properties": {"Address_ID": 7762671, "ADDRESS_FULL": "76 Grenville St", "POSTAL_CODE": "M5S 1B2", "MUNICIPALITY": "former TORONTO", "PLACE_NAME": "Sunnybrook & Women's Coll W C Site", "LONGITUDE": -79.3874, "LATITUDE": 43.6615}, "geometry": {"type": "Point", "coordinates": [-79.3874, 43.6615]}}, {"type": "Feature", "properties": {"Address_ID": 7792529, "ADDRESS_FULL": "200 Elizabeth St", "POSTAL_CODE": "M5G 2C4", "MUNICIPALITY": "former TORONTO", "PLACE_NAME": null, "LONGITUDE": -79.3872, "LATITUDE": 43.6592}, "geometry": {"type": "Point", "coordinates": [-79.3872, 43.6592]}}, {"type": "Feature", "properties": {"Address_ID": 7792695, "ADDRESS_FULL": "550 University Ave", "POSTAL_CODE": "M5G 2A2", "MUNICIPALITY": "former TORONTO", "PLACE_NAME": "Toronto Rehab Institute", "LONGITUDE": -79.39, "LATITUDE": 43.6567}, "geometry": {"type": "Point", "coordinates": [-79.39, 43.6567]}}, {"type": "Feature", "properties": {"Address_ID": 7792696, "ADDRESS_FULL": "555 University Ave", "POSTAL_CODE": "M5G 1X8", "MUNICIPALITY": "former TORONTO", "PLACE_NAME": "Hospital For Sick Children", "LONGITUDE": -79.3874, "LATITUDE": 43.6574}, "geometry": {"type": "Point", "coordinates": [-79.3874, 43.6574]}}, {"type": "Feature", "properties": {"Address_ID": 7792698, "ADDRESS_FULL": "600 University Ave", "POSTAL_CODE": "M5G 1X5", "MUNICIPALITY": "former TORONTO", "PLACE_NAME": "Mount Sinai Hospital", "LONGITUDE": -79.3904, "LATITUDE": 43.6575}, "geometry": {"type": "Point", "coordinates": [-79.3904, 43.6575]}}, {"type": "Feature", "properties": {"Address_ID": 8168605, "ADDRESS_FULL": "130 Dunn Ave", "POSTAL_CODE": "M6K 2R7", "MUNICIPALITY": "former TORONTO", "PLACE_NAME": "Rehabilitation Institute", "LONGITUDE": -79.4331, "LATITUDE": 43.635}, "geometry": {"type": "Point", "coordinates": [-79.4331, 43.635]}}, {"type": "Feature", "properties": {"Address_ID": 9035631, "ADDRESS_FULL": "2111 Finch Ave W", "POSTAL_CODE": "M3N 1N1", "MUNICIPALITY": "NORTH YORK", "PLACE_NAME": "Humber River Reg Hosp - York-Finch Site", "LONGITUDE": -79.5265, "LATITUDE": 43.755}, "geometry": {"type": "Point", "coordinates": [-79.5265, 43.755]}}, {"type": "Feature", "properties": {"Address_ID": 9066243, "ADDRESS_FULL": "2175 Keele St", "POSTAL_CODE": "M6M 3Z4", "MUNICIPALITY": "YORK", "PLACE_NAME": "Humber River Reg Hosp - Nwestern Site", "LONGITUDE": -79.4731, "LATITUDE": 43.6978}, "geometry": {"type": "Point", "coordinates": [-79.4731, 43.6978]}}, {"type": "Feature", "properties": {"Address_ID": 9086232, "ADDRESS_FULL": "399 Bathurst St", "POSTAL_CODE": "M5T 2S8", "MUNICIPALITY": "former TORONTO", "PLACE_NAME": "The Toronto Hospital - Western Site", "LONGITUDE": -79.4057, "LATITUDE": 43.6531}, "geometry": {"type": "Point", "coordinates": [-79.4057, 43.6531]}}, {"type": "Feature", "properties": {"Address_ID": 9110076, "ADDRESS_FULL": "47 Austin Ter", "POSTAL_CODE": "M5R 1Y8", "MUNICIPALITY": "former TORONTO", "PLACE_NAME": "Toronto Rehab Institute - Hillcrest Site", "LONGITUDE": -79.4159, "LATITUDE": 43.6781}, "geometry": {"type": "Point", "coordinates": [-79.4159, 43.6781]}}, {"type": "Feature", "properties": {"Address_ID": 9638452, "ADDRESS_FULL": "3050 Lawrence Ave E", "POSTAL_CODE": "M1P 2V5", "MUNICIPALITY": "SCARBOROUGH", "PLACE_NAME": "Scar Grace Hosp - Scar General Site", "LONGITUDE": -79.2475, "LATITUDE": 43.7562}, "geometry": {"type": "Point", "coordinates": [-79.2475, 43.7562]}}, {"type": "Feature", "properties": {"Address_ID": 9942219, "ADDRESS_FULL": "250 College St", "POSTAL_CODE": "M5T 1R8", "MUNICIPALITY": "former TORONTO", "PLACE_NAME": null, "LONGITUDE": -79.3991, "LATITUDE": 43.6586}, "geometry": {"type": "Point", "coordinates": [-79.3991, 43.6586]}}, {"type": "Feature", "properties": {"Address_ID": 10553805, "ADDRESS_FULL": "625 Runnymede Rd", "POSTAL_CODE": "M6S 3A3", "MUNICIPALITY": "former TORONTO", "PLACE_NAME": "Runnymede Health Care Centre", "LONGITUDE": -79.4811, "LATITUDE": 43.6642}, "geometry": {"type": "Point", "coordinates": [-79.4811, 43.6642]}}, {"type": "Feature", "properties": {"Address_ID": 10757635, "ADDRESS_FULL": "30 The Queensway", "POSTAL_CODE": "M6R 1B5", "MUNICIPALITY": "former TORONTO", "PLACE_NAME": "St Joseph's Health Centre", "LONGITUDE": -79.4501, "LATITUDE": 43.6394}, "geometry": {"type": "Point", "coordinates": [-79.4501, 43.6394]}}, {"type": "Feature", "properties": {"Address_ID": 12601202, "ADDRESS_FULL": "347 Rumsey Rd", "POSTAL_CODE": "M4G 1R7", "MUNICIPALITY": "NORTH YORK", "PLACE_NAME": null, "LONGITUDE": -79.3718, "LATITUDE": 43.7187}, "geometry": {"type": "Point", "coordinates": [-79.3718, 43.7187]}}, {"type": "Feature", "properties": {"Address_ID": 12601205, "ADDRESS_FULL": "150 Kilgour Rd", "POSTAL_CODE": "M4G 1R8", "MUNICIPALITY": "NORTH YORK", "PLACE_NAME": "Bloorview Hugh Macmillan Centre", "LONGITUDE": -79.373, "LATITUDE": 43.7184}, "geometry": {"type": "Point", "coordinates": [-79.373, 43.7184]}}, {"type": "Feature", "properties": {"Address_ID": 12601206, "ADDRESS_FULL": "345 Rumsey Rd", "POSTAL_CODE": "M4G 1R7", "MUNICIPALITY": "NORTH YORK", "PLACE_NAME": "Toronto Rehab Institute - T.R.C. Site", "LONGITUDE": -79.3715, "LATITUDE": 43.7187}, "geometry": {"type": "Point", "coordinates": [-79.3715, 43.7187]}}, {"type": "Feature", "properties": {"Address_ID": 13498043, "ADDRESS_FULL": "610 University Ave", "POSTAL_CODE": "M5G 2M9", "MUNICIPALITY": "former TORONTO", "PLACE_NAME": "Princess Margaret Hosp", "LONGITUDE": -79.3904, "LATITUDE": 43.6581}, "geometry": {"type": "Point", "coordinates": [-79.3904, 43.6581]}}, {"type": "Feature", "properties": {"Address_ID": 13501524, "ADDRESS_FULL": "555 Finch Ave W", "POSTAL_CODE": "M2R 1N5", "MUNICIPALITY": "NORTH YORK", "PLACE_NAME": "North York General Hospital - Branson Site", "LONGITUDE": -79.4474, "LATITUDE": 43.7716}, "geometry": {"type": "Point", "coordinates": [-79.4474, 43.7716]}}, {"type": "Feature", "properties": {"Address_ID": 20232082, "ADDRESS_FULL": "1001 Queen St W", "POSTAL_CODE": "M6J 1H4", "MUNICIPALITY": "former TORONTO", "PLACE_NAME": null, "LONGITUDE": -79.4181, "LATITUDE": 43.644}, "geometry": {"type": "Point", "coordinates": [-79.4181, 43.644]}}, {"type": "Feature", "properties": {"Address_ID": 30063647, "ADDRESS_FULL": "1235 Wilson Ave", "POSTAL_CODE": "M3M 0B2", "MUNICIPALITY": "NORTH YORK", "PLACE_NAME": null, "LONGITUDE": -79.4892, "LATITUDE": 43.7243}, "geometry": {"type": "Point", "coordinates": [-79.4892, 43.7243]}}]}